{
    "id": -4698883479261031052,
    "name": "上海师范大学",
    "rating": 4.7,
    "popularity": 52,
    "data_path": "map_data/university_map/Shanghai_Normal_University",
    "amenity": {
        "affiliation": -4698883479261031052,
        "amenity_list": [
            {
                "id": 1563324872,
                "name": "可能感兴趣的地点",
                "type": "toilets",
                "latitude": 31.1639349,
                "longitutde": 121.4145107
            },
            {
                "id": 543913614,
                "name": "上海师范大学附属中学",
                "type": "school",
                "latitude": 31.165344351881,
                "longitutde": 121.41355274686353
            },
            {
                "id": 790306946,
                "name": "上海行政学院第三分院",
                "type": "school",
                "latitude": 31.163585678603813,
                "longitutde": 121.40940615740098
            },
            {
                "id": 863132756,
                "name": "上海师范大学校医院",
                "type": "hospital",
                "latitude": 31.16106076472469,
                "longitutde": 121.41150914571848
            },
            {
                "id": 863132640,
                "name": "上海师范大学第三教学楼",
                "type": "nan",
                "latitude": 31.16319655708493,
                "longitutde": 121.41790488509294
            },
            {
                "id": 863132719,
                "name": "上海师范大学第六教学楼",
                "type": "nan",
                "latitude": 31.16363619007473,
                "longitutde": 121.41420543166721
            },
            {
                "id": 863132721,
                "name": "上海师范大学第一教学楼",
                "type": "nan",
                "latitude": 31.163317837911535,
                "longitutde": 121.41251354198394
            },
            {
                "id": 863132742,
                "name": "环境与地理科学学院",
                "type": "nan",
                "latitude": 31.165402180064383,
                "longitutde": 121.41228370364387
            },
            {
                "id": 863132755,
                "name": "美术学院设计楼",
                "type": "nan",
                "latitude": 31.161503083874837,
                "longitutde": 121.4119814293298
            },
            {
                "id": 863132756,
                "name": "上海师范大学校医院",
                "type": "hospital",
                "latitude": 31.16106076472469,
                "longitutde": 121.41150914571848
            },
            {
                "id": 863132771,
                "name": "香樟苑食堂",
                "type": "nan",
                "latitude": 31.16229568083886,
                "longitutde": 121.4106909158663
            },
            {
                "id": 863132772,
                "name": "桃李居食堂",
                "type": "nan",
                "latitude": 31.162226850000003,
                "longitutde": 121.41002745000002
            },
            {
                "id": 863132776,
                "name": "丹桂苑食堂",
                "type": "nan",
                "latitude": 31.16165561569819,
                "longitutde": 121.40987435083788
            },
            {
                "id": 863132788,
                "name": "西部第一学生宿舍",
                "type": "nan",
                "latitude": 31.16097255,
                "longitutde": 121.41098365
            },
            {
                "id": 863132789,
                "name": "西十一宿舍楼",
                "type": "nan",
                "latitude": 31.161044850000007,
                "longitutde": 121.4092764
            },
            {
                "id": 863132790,
                "name": "西十二宿舍楼",
                "type": "nan",
                "latitude": 31.160744150000003,
                "longitutde": 121.4093247
            },
            {
                "id": 863132791,
                "name": "西十三宿舍楼",
                "type": "nan",
                "latitude": 31.160445950000003,
                "longitutde": 121.40939630000004
            },
            {
                "id": 863132792,
                "name": "西十四宿舍楼",
                "type": "nan",
                "latitude": 31.160541973203138,
                "longitutde": 121.4099122992721
            },
            {
                "id": 863132793,
                "name": "西部第六学生宿舍",
                "type": "nan",
                "latitude": 31.160652046986854,
                "longitutde": 121.41045102823378
            },
            {
                "id": 863132794,
                "name": "西部第四学生宿舍",
                "type": "nan",
                "latitude": 31.16148555,
                "longitutde": 121.41024469999998
            },
            {
                "id": 863132795,
                "name": "西部第五学生宿舍",
                "type": "nan",
                "latitude": 31.16103040000001,
                "longitutde": 121.4103309
            },
            {
                "id": 929693665,
                "name": "紫薇苑食堂",
                "type": "nan",
                "latitude": 31.163190757551995,
                "longitutde": 121.41880768591017
            }
        ]
    }
}