{
    "id": -6021986069272906839,
    "name": "上海理工大学",
    "rating": 4.7,
    "popularity": 56,
    "data_path": "map_data/university_map/University_of_Shanghai_for_Science_and_Technology",
    "amenity": {
        "affiliation": -6021986069272906839,
        "amenity_list": [
            {
                "id": 1905718792,
                "name": "能源与动力工程学院",
                "type": "college",
                "latitude": 31.2930371,
                "longitutde": 121.5489601
            },
            {
                "id": 6746399886,
                "name": "可能感兴趣的地点",
                "type": "waste_basket",
                "latitude": 31.2938444,
                "longitutde": 121.5506072
            },
            {
                "id": 155169489,
                "name": "第五食堂",
                "type": "restaurant",
                "latitude": 31.298409018609956,
                "longitutde": 121.5528693986121
            },
            {
                "id": 155312149,
                "name": "浴室",
                "type": "shower",
                "latitude": 31.29606461338449,
                "longitutde": 121.55033030916692
            },
            {
                "id": 155454904,
                "name": "医务室",
                "type": "doctors",
                "latitude": 31.29529968562605,
                "longitutde": 121.54995235601406
            },
            {
                "id": 155602963,
                "name": "第二食堂 / 教工食堂",
                "type": "restaurant",
                "latitude": 31.295638375448075,
                "longitutde": 121.55147864632922
            },
            {
                "id": 2087725,
                "name": "第一食堂",
                "type": "restaurant",
                "latitude": 31.296652469013658,
                "longitutde": 121.55280243962176
            },
            {
                "id": 2403832,
                "name": "湛恩纪念图书馆",
                "type": "library",
                "latitude": 31.297320778840323,
                "longitutde": 121.55006089550632
            },
            {
                "id": 155169489,
                "name": "第五食堂",
                "type": "restaurant",
                "latitude": 31.298409018609956,
                "longitutde": 121.5528693986121
            },
            {
                "id": 155171513,
                "name": "第三学生公寓 3 号楼",
                "type": "nan",
                "latitude": 31.297950817028756,
                "longitutde": 121.55314944638857
            },
            {
                "id": 155172996,
                "name": "水泵房",
                "type": "nan",
                "latitude": 31.29769113610523,
                "longitutde": 121.55320855846612
            },
            {
                "id": 155181190,
                "name": "第三学生公寓 2 号楼",
                "type": "nan",
                "latitude": 31.29726168889874,
                "longitutde": 121.55294016456435
            },
            {
                "id": 155299974,
                "name": "门卫",
                "type": "nan",
                "latitude": 31.29868947476293,
                "longitutde": 121.55218854528313
            },
            {
                "id": 155302417,
                "name": "第三学生公寓 1 号楼",
                "type": "nan",
                "latitude": 31.297401140605018,
                "longitutde": 121.55248139772031
            },
            {
                "id": 155304405,
                "name": "第四学生公寓 1 号楼",
                "type": "nan",
                "latitude": 31.297656688173312,
                "longitutde": 121.55217457809607
            },
            {
                "id": 155305810,
                "name": "第四学生公寓 2 号楼",
                "type": "nan",
                "latitude": 31.297686768430687,
                "longitutde": 121.55159327171168
            },
            {
                "id": 155307536,
                "name": "第四学生公寓 3 号楼",
                "type": "nan",
                "latitude": 31.297945878888523,
                "longitutde": 121.5510722833296
            },
            {
                "id": 155310719,
                "name": "第三教学楼",
                "type": "nan",
                "latitude": 31.296815856720414,
                "longitutde": 121.55124761263558
            },
            {
                "id": 155312149,
                "name": "浴室",
                "type": "shower",
                "latitude": 31.29606461338449,
                "longitutde": 121.55033030916692
            },
            {
                "id": 155312947,
                "name": "(原第四食堂)",
                "type": "nan",
                "latitude": 31.295776055352977,
                "longitutde": 121.55000105474771
            },
            {
                "id": 155316010,
                "name": "高地实验室",
                "type": "nan",
                "latitude": 31.295838661055257,
                "longitutde": 121.54950411056967
            },
            {
                "id": 155438432,
                "name": "实训车间",
                "type": "nan",
                "latitude": 31.296082086427127,
                "longitutde": 121.54858650937831
            },
            {
                "id": 155438973,
                "name": "实训中心",
                "type": "nan",
                "latitude": 31.29590985,
                "longitutde": 121.5488516
            },
            {
                "id": 155440152,
                "name": "光仪所辅房",
                "type": "nan",
                "latitude": 31.29558190594784,
                "longitutde": 121.54905809852926
            },
            {
                "id": 155440280,
                "name": "上海光学仪器研究所",
                "type": "nan",
                "latitude": 31.295379565588195,
                "longitutde": 121.5493923944192
            },
            {
                "id": 155442785,
                "name": "创新实训中心",
                "type": "nan",
                "latitude": 31.295099699999998,
                "longitutde": 121.54881644999999
            },
            {
                "id": 155442786,
                "name": "材料科学与工程学院",
                "type": "nan",
                "latitude": 31.29552864424135,
                "longitutde": 121.54842851396627
            },
            {
                "id": 155442789,
                "name": "汽车试验中心",
                "type": "nan",
                "latitude": 31.29568665683376,
                "longitutde": 121.54820708053224
            },
            {
                "id": 155451667,
                "name": "上海理工大学继续教育学院",
                "type": "nan",
                "latitude": 31.293819907496548,
                "longitutde": 121.54654733649157
            },
            {
                "id": 155451669,
                "name": "第五办公楼",
                "type": "nan",
                "latitude": 31.293539640998844,
                "longitutde": 121.54624366133324
            },
            {
                "id": 155454902,
                "name": "保卫处",
                "type": "nan",
                "latitude": 31.295611199999993,
                "longitutde": 121.55034694999999
            },
            {
                "id": 155454904,
                "name": "医务室",
                "type": "doctors",
                "latitude": 31.29529968562605,
                "longitutde": 121.54995235601406
            },
            {
                "id": 155454907,
                "name": "基建规划处",
                "type": "nan",
                "latitude": 31.295454402854944,
                "longitutde": 121.55015823407388
            },
            {
                "id": 155472091,
                "name": "工会",
                "type": "nan",
                "latitude": 31.296452664136638,
                "longitutde": 121.55234118788894
            },
            {
                "id": 155475993,
                "name": "暖屋爱心超市 (东堂)",
                "type": "nan",
                "latitude": 31.296169017281596,
                "longitutde": 121.55181509700623
            },
            {
                "id": 155475998,
                "name": "学生活动中心",
                "type": "nan",
                "latitude": 31.295947514195944,
                "longitutde": 121.55204895535348
            },
            {
                "id": 155477418,
                "name": "第七宿舍",
                "type": "nan",
                "latitude": 31.296493177292547,
                "longitutde": 121.55334021628872
            },
            {
                "id": 155477421,
                "name": "第三宿舍 (思裴堂)",
                "type": "nan",
                "latitude": 31.295941865579234,
                "longitutde": 121.55249633388617
            },
            {
                "id": 155477425,
                "name": "第四宿舍 (思伊堂)",
                "type": "nan",
                "latitude": 31.29620435,
                "longitutde": 121.55290369999999
            },
            {
                "id": 155552790,
                "name": "第一学生公寓",
                "type": "nan",
                "latitude": 31.296106975955094,
                "longitutde": 121.55362892814124
            },
            {
                "id": 155556461,
                "name": "公共服务中心",
                "type": "nan",
                "latitude": 31.295493735611497,
                "longitutde": 121.5531565861075
            },
            {
                "id": 155557303,
                "name": "行政服务中心 (格致堂)",
                "type": "nan",
                "latitude": 31.294995602638373,
                "longitutde": 121.55243009760852
            },
            {
                "id": 155594043,
                "name": "校长办公室",
                "type": "nan",
                "latitude": 31.295536859476183,
                "longitutde": 121.551944920938
            },
            {
                "id": 155597274,
                "name": "勤工俭学中心 (红塔)",
                "type": "nan",
                "latitude": 31.2958422,
                "longitutde": 121.55184919999998
            },
            {
                "id": 155602963,
                "name": "第二食堂 / 教工食堂",
                "type": "restaurant",
                "latitude": 31.295638375448075,
                "longitutde": 121.55147864632922
            },
            {
                "id": 155615221,
                "name": "光电信息与计算机工程学院",
                "type": "nan",
                "latitude": 31.294748619012644,
                "longitutde": 121.55277166806823
            },
            {
                "id": 155631582,
                "name": "仪表二馆",
                "type": "nan",
                "latitude": 31.29521835895117,
                "longitutde": 121.55352029859863
            },
            {
                "id": 155634056,
                "name": "第八宿舍",
                "type": "nan",
                "latitude": 31.294916598539412,
                "longitutde": 121.55372232603597
            },
            {
                "id": 155638208,
                "name": "第六宿舍 (留学生公寓) (馥赉堂)",
                "type": "nan",
                "latitude": 31.294485773955294,
                "longitutde": 121.55341264528907
            },
            {
                "id": 155640087,
                "name": "第五宿舍 (怀德堂)",
                "type": "nan",
                "latitude": 31.294229660886632,
                "longitutde": 121.55284151818387
            },
            {
                "id": 155641801,
                "name": "体育部 (艾德蒙堂)",
                "type": "nan",
                "latitude": 31.294113177198117,
                "longitutde": 121.55324731345608
            },
            {
                "id": 155644879,
                "name": "成教楼",
                "type": "nan",
                "latitude": 31.29417726805423,
                "longitutde": 121.55388719064364
            },
            {
                "id": 155652128,
                "name": "锅炉房",
                "type": "nan",
                "latitude": 31.293873400000006,
                "longitutde": 121.55396815
            },
            {
                "id": 169603477,
                "name": "第一教学楼",
                "type": "nan",
                "latitude": 31.293781377654863,
                "longitutde": 121.55144500133012
            },
            {
                "id": 179755576,
                "name": "第四学生公寓 4 号楼",
                "type": "nan",
                "latitude": 31.29815413769037,
                "longitutde": 121.55217935051236
            },
            {
                "id": 180007512,
                "name": "第一办公楼 (思雷堂)",
                "type": "nan",
                "latitude": 31.293106034220283,
                "longitutde": 121.54982882765745
            },
            {
                "id": 180007513,
                "name": "第二办公楼 (思孟堂)",
                "type": "nan",
                "latitude": 31.293402208944435,
                "longitutde": 121.55028834895936
            },
            {
                "id": 180007514,
                "name": "音乐堂",
                "type": "nan",
                "latitude": 31.2932256417922,
                "longitutde": 121.55077271868738
            },
            {
                "id": 180016362,
                "name": "创意设计实践基地",
                "type": "nan",
                "latitude": 31.292456644486847,
                "longitutde": 121.55057923276867
            },
            {
                "id": 180016363,
                "name": "基础实验中心",
                "type": "nan",
                "latitude": 31.29281020806897,
                "longitutde": 121.55076569265749
            },
            {
                "id": 180019002,
                "name": "室内体育馆",
                "type": "nan",
                "latitude": 31.29326395485378,
                "longitutde": 121.55362948825359
            },
            {
                "id": 180020532,
                "name": "第二学生公寓 2 号楼",
                "type": "nan",
                "latitude": 31.292587850434774,
                "longitutde": 121.55239617350962
            },
            {
                "id": 180020533,
                "name": "第二学生公寓 3 号楼",
                "type": "nan",
                "latitude": 31.292884667206554,
                "longitutde": 121.55336412104148
            },
            {
                "id": 180102633,
                "name": "中德学院",
                "type": "nan",
                "latitude": 31.29152085,
                "longitutde": 121.5497454
            },
            {
                "id": 180102634,
                "name": "动力二馆",
                "type": "nan",
                "latitude": 31.291617715657324,
                "longitutde": 121.55017974587456
            },
            {
                "id": 180102635,
                "name": "第二学生公寓 1 号楼",
                "type": "nan",
                "latitude": 31.292229457920172,
                "longitutde": 121.55144363232773
            },
            {
                "id": 180126200,
                "name": "大礼堂",
                "type": "nan",
                "latitude": 31.294925679657215,
                "longitutde": 121.55180402437716
            },
            {
                "id": 180126201,
                "name": "思福堂",
                "type": "nan",
                "latitude": 31.294434468005655,
                "longitutde": 121.55143286224403
            },
            {
                "id": 180126202,
                "name": "招生办",
                "type": "nan",
                "latitude": 31.295083900000005,
                "longitutde": 121.55099039999999
            },
            {
                "id": 180126203,
                "name": "新专家楼",
                "type": "nan",
                "latitude": 31.294876722038975,
                "longitutde": 121.55073452946692
            },
            {
                "id": 180126204,
                "name": "沪江学院",
                "type": "nan",
                "latitude": 31.29433871136759,
                "longitutde": 121.5512071941825
            },
            {
                "id": 180126205,
                "name": "研究生部",
                "type": "nan",
                "latitude": 31.294842766171495,
                "longitutde": 121.55025463393778
            },
            {
                "id": 180126206,
                "name": "门卫",
                "type": "nan",
                "latitude": 31.29107727307904,
                "longitutde": 121.54909399298356
            },
            {
                "id": 180132358,
                "name": "德国文化交流中心",
                "type": "nan",
                "latitude": 31.294789310177997,
                "longitutde": 121.55133523968784
            },
            {
                "id": 180132359,
                "name": "美国文化交流中心",
                "type": "nan",
                "latitude": 31.294614132896495,
                "longitutde": 121.5511041922864
            },
            {
                "id": 180132360,
                "name": "英国文化交流中心",
                "type": "nan",
                "latitude": 31.294337695554642,
                "longitutde": 121.5509164578072
            },
            {
                "id": 180137211,
                "name": "刘湛恩故居",
                "type": "nan",
                "latitude": 31.294588710686288,
                "longitutde": 121.54991627166928
            },
            {
                "id": 180137212,
                "name": "北欧文化交流中心",
                "type": "nan",
                "latitude": 31.293888124674478,
                "longitutde": 121.54945056855156
            },
            {
                "id": 180137213,
                "name": "日本文化交流中心",
                "type": "nan",
                "latitude": 31.294234599568476,
                "longitutde": 121.55006735371202
            },
            {
                "id": 180137214,
                "name": "法国文化交流中心",
                "type": "nan",
                "latitude": 31.29427329131894,
                "longitutde": 121.550413624131
            },
            {
                "id": 180137215,
                "name": "澳大利亚文化交流中心",
                "type": "nan",
                "latitude": 31.29412440928797,
                "longitutde": 121.54983858038287
            },
            {
                "id": 180140498,
                "name": "动力馆",
                "type": "nan",
                "latitude": 31.293249696700713,
                "longitutde": 121.54905613168476
            },
            {
                "id": 180140499,
                "name": "太阳能楼",
                "type": "nan",
                "latitude": 31.29346845849555,
                "longitutde": 121.54888181967031
            },
            {
                "id": 180140500,
                "name": "门卫",
                "type": "nan",
                "latitude": 31.29226399080629,
                "longitutde": 121.5478325735487
            },
            {
                "id": 180252134,
                "name": "老专家楼",
                "type": "nan",
                "latitude": 31.294198964269412,
                "longitutde": 121.54899944231964
            },
            {
                "id": 180252135,
                "name": "老年活动室",
                "type": "nan",
                "latitude": 31.29303420028875,
                "longitutde": 121.54839703332162
            },
            {
                "id": 180252136,
                "name": "门卫",
                "type": "nan",
                "latitude": 31.292570065507512,
                "longitutde": 121.54708981119715
            },
            {
                "id": 2086207,
                "name": "机械工程学院 / 学生创业中心",
                "type": "nan",
                "latitude": 31.2962874010481,
                "longitutde": 121.54933158978277
            },
            {
                "id": 2087596,
                "name": "体育文化活动中心",
                "type": "nan",
                "latitude": 31.294650599408733,
                "longitutde": 121.54789793333985
            },
            {
                "id": 2087597,
                "name": "学生发展中心",
                "type": "nan",
                "latitude": 31.294158121357487,
                "longitutde": 121.54730385834009
            },
            {
                "id": 2087598,
                "name": "学生工作部",
                "type": "nan",
                "latitude": 31.293785820227516,
                "longitutde": 121.5477393817569
            },
            {
                "id": 2087764,
                "name": "开水房",
                "type": "nan",
                "latitude": 31.296337450000003,
                "longitutde": 121.55220355
            },
            {
                "id": 2087765,
                "name": "锅炉房",
                "type": "nan",
                "latitude": 31.29631286976898,
                "longitutde": 121.55201699625803
            },
            {
                "id": 2088999,
                "name": "演讲厅",
                "type": "nan",
                "latitude": 31.294803192783316,
                "longitutde": 121.55320548873911
            },
            {
                "id": 2089000,
                "name": "藏书楼",
                "type": "nan",
                "latitude": 31.294651962815674,
                "longitutde": 121.55295940712362
            },
            {
                "id": 2402048,
                "name": "环境与建筑学院",
                "type": "nan",
                "latitude": 31.292902194592344,
                "longitutde": 121.55017674259466
            },
            {
                "id": 2402049,
                "name": "经济管理实验中心",
                "type": "nan",
                "latitude": 31.292611584186837,
                "longitutde": 121.55018989879996
            },
            {
                "id": 2403831,
                "name": "会议中心",
                "type": "nan",
                "latitude": 31.297342142166357,
                "longitutde": 121.54962707247044
            },
            {
                "id": 2403832,
                "name": "湛恩纪念图书馆",
                "type": "library",
                "latitude": 31.297320778840323,
                "longitutde": 121.55006089550632
            },
            {
                "id": 2403833,
                "name": "现代化教学中心",
                "type": "nan",
                "latitude": 31.297464901845345,
                "longitutde": 121.55062417698055
            },
            {
                "id": 2403834,
                "name": "网管中心",
                "type": "nan",
                "latitude": 31.297297207414022,
                "longitutde": 121.55050264613455
            },
            {
                "id": 2403906,
                "name": "报告厅",
                "type": "nan",
                "latitude": 31.291791200723583,
                "longitutde": 121.54877106788958
            },
            {
                "id": 2403907,
                "name": "综合楼 A 座",
                "type": "nan",
                "latitude": 31.292041566098405,
                "longitutde": 121.54857697882942
            },
            {
                "id": 2403908,
                "name": "综合楼 B 座",
                "type": "nan",
                "latitude": 31.292484002166262,
                "longitutde": 121.54924669644662
            },
            {
                "id": 2403909,
                "name": "综合楼 C 座",
                "type": "nan",
                "latitude": 31.291602425153577,
                "longitutde": 121.54906318878179
            },
            {
                "id": 2403910,
                "name": "综合楼 D 座",
                "type": "nan",
                "latitude": 31.292021828418537,
                "longitutde": 121.54964611336987
            },
            {
                "id": 2411138,
                "name": "先进制造技术大楼",
                "type": "nan",
                "latitude": 31.293331017235058,
                "longitutde": 121.54681022583257
            }
        ]
    }
}