{
    "id": -2192308266516093734,
    "name": "西安交通大学",
    "rating": 4.6,
    "popularity": 100,
    "data_path": "map_data/university_map/Xian_Jiaotong_University",
    "amenity": {
        "affiliation": -2192308266516093734,
        "amenity_list": [
            {
                "id": 1652492980,
                "name": "交大校医院",
                "type": "hospital",
                "latitude": 34.2460037,
                "longitutde": 108.9827806
            },
            {
                "id": 1652493010,
                "name": "钱学森图书馆",
                "type": "library",
                "latitude": 34.2480701,
                "longitutde": 108.9789718
            },
            {
                "id": 1694282403,
                "name": "康桥苑",
                "type": "restaurant",
                "latitude": 34.2465737,
                "longitutde": 108.9809274
            },
            {
                "id": 263634244,
                "name": "青年之家",
                "type": "theatre",
                "latitude": 34.24376216645546,
                "longitutde": 108.97669559927482
            },
            {
                "id": 970809996,
                "name": "可能感兴趣的地点",
                "type": "parking",
                "latitude": 34.24641697474077,
                "longitutde": 108.97760709143256
            },
            {
                "id": 263624056,
                "name": "思源活动中心",
                "type": "nan",
                "latitude": 34.24429115684825,
                "longitutde": 108.978978675099
            },
            {
                "id": 263624057,
                "name": "主楼E座",
                "type": "nan",
                "latitude": 34.246181536723995,
                "longitutde": 108.97895690099489
            },
            {
                "id": 263624058,
                "name": "主楼B座",
                "type": "nan",
                "latitude": 34.2466295123022,
                "longitutde": 108.97855312455104
            },
            {
                "id": 263624059,
                "name": "主楼A座",
                "type": "nan",
                "latitude": 34.2466250220811,
                "longitutde": 108.97935714983615
            },
            {
                "id": 263624060,
                "name": "主楼C座",
                "type": "nan",
                "latitude": 34.24574475612575,
                "longitutde": 108.97857757130514
            },
            {
                "id": 263624061,
                "name": "主楼D座",
                "type": "nan",
                "latitude": 34.24572496411864,
                "longitutde": 108.97936893375196
            },
            {
                "id": 263624481,
                "name": "钱学森图书馆",
                "type": "nan",
                "latitude": 34.24870055433262,
                "longitutde": 108.97896871295204
            },
            {
                "id": 263625085,
                "name": "电子与信息学部",
                "type": "nan",
                "latitude": 34.25196633372927,
                "longitutde": 108.97638042690862
            },
            {
                "id": 263625087,
                "name": "中心三楼",
                "type": "nan",
                "latitude": 34.25148970745761,
                "longitutde": 108.97790161613403
            },
            {
                "id": 263625088,
                "name": "中心一楼",
                "type": "nan",
                "latitude": 34.25147670544997,
                "longitutde": 108.97900058865343
            },
            {
                "id": 263625089,
                "name": "中心二楼",
                "type": "nan",
                "latitude": 34.25150567616905,
                "longitutde": 108.98007052091525
            },
            {
                "id": 263625090,
                "name": "理学院 数学与统计学院",
                "type": "nan",
                "latitude": 34.25102805,
                "longitutde": 108.97899765
            },
            {
                "id": 263625675,
                "name": "东二楼",
                "type": "nan",
                "latitude": 34.2508457815272,
                "longitutde": 108.98179021365019
            },
            {
                "id": 263625676,
                "name": "西二楼",
                "type": "nan",
                "latitude": 34.250902830768574,
                "longitutde": 108.9760657929997
            },
            {
                "id": 263625677,
                "name": "东一楼",
                "type": "nan",
                "latitude": 34.25186471656254,
                "longitutde": 108.98184148344968
            },
            {
                "id": 263625678,
                "name": "东三楼",
                "type": "nan",
                "latitude": 34.25009974516051,
                "longitutde": 108.98176761538657
            },
            {
                "id": 263625679,
                "name": "康桥苑餐厅",
                "type": "nan",
                "latitude": 34.246471,
                "longitutde": 108.98102399999999
            },
            {
                "id": 263625680,
                "name": "彭康楼",
                "type": "nan",
                "latitude": 34.24659619502266,
                "longitutde": 108.97780623843886
            },
            {
                "id": 263632364,
                "name": "逸夫科学馆",
                "type": "nan",
                "latitude": 34.247649923329554,
                "longitutde": 108.98017658459628
            },
            {
                "id": 263632769,
                "name": "信息与网络中心",
                "type": "nan",
                "latitude": 34.248640339772244,
                "longitutde": 108.97996505023302
            },
            {
                "id": 263632770,
                "name": "教一楼",
                "type": "nan",
                "latitude": 34.248812760603776,
                "longitutde": 108.98028414969967
            },
            {
                "id": 263632771,
                "name": "教二楼",
                "type": "nan",
                "latitude": 34.24878612988306,
                "longitutde": 108.9777625080201
            },
            {
                "id": 263632772,
                "name": "逸夫工程馆",
                "type": "nan",
                "latitude": 34.248097330243944,
                "longitutde": 108.97782067483583
            },
            {
                "id": 263633887,
                "name": "工程坊",
                "type": "nan",
                "latitude": 34.24749733500098,
                "longitutde": 108.9767028232489
            },
            {
                "id": 263633895,
                "name": "管理学院",
                "type": "nan",
                "latitude": 34.24321064932501,
                "longitutde": 108.97670013535112
            },
            {
                "id": 263633896,
                "name": "外国语学院",
                "type": "nan",
                "latitude": 34.243268725022055,
                "longitutde": 108.97552801985239
            },
            {
                "id": 263634244,
                "name": "青年之家",
                "type": "theatre",
                "latitude": 34.24376216645546,
                "longitutde": 108.97669559927482
            },
            {
                "id": 263807970,
                "name": "彭康书院 东18 19 20舍",
                "type": "nan",
                "latitude": 34.243448310359916,
                "longitutde": 108.98186194067975
            },
            {
                "id": 263807971,
                "name": "彭康书院 东17舍",
                "type": "nan",
                "latitude": 34.24369357974278,
                "longitutde": 108.98268563056445
            },
            {
                "id": 263808678,
                "name": "南洋书院 东7舍",
                "type": "nan",
                "latitude": 34.24523112519122,
                "longitutde": 108.98026550587117
            },
            {
                "id": 263808679,
                "name": "南洋书院 东8舍",
                "type": "nan",
                "latitude": 34.24522657341236,
                "longitutde": 108.98105303363944
            },
            {
                "id": 263808680,
                "name": "南洋书院 东9舍",
                "type": "nan",
                "latitude": 34.24521107534389,
                "longitutde": 108.98193776285657
            },
            {
                "id": 263808681,
                "name": "励志书院 东6舍",
                "type": "nan",
                "latitude": 34.24582665,
                "longitutde": 108.9810217
            },
            {
                "id": 263808682,
                "name": "文治书院 西18 19 20舍",
                "type": "nan",
                "latitude": 34.24394779727279,
                "longitutde": 108.97549061420673
            },
            {
                "id": 263808683,
                "name": "崇实书院 西16舍",
                "type": "nan",
                "latitude": 34.2447057883517,
                "longitutde": 108.97673269131813
            },
            {
                "id": 263808684,
                "name": "崇实书院 西17舍",
                "type": "nan",
                "latitude": 34.244359700000004,
                "longitutde": 108.97673165000002
            },
            {
                "id": 263808685,
                "name": "仲英书院 东3舍",
                "type": "nan",
                "latitude": 34.24645145,
                "longitutde": 108.98172265000001
            },
            {
                "id": 263808686,
                "name": "仲英书院 东2舍",
                "type": "nan",
                "latitude": 34.246752199999996,
                "longitutde": 108.98199044999998
            },
            {
                "id": 263808687,
                "name": "仲英书院 东1舍",
                "type": "nan",
                "latitude": 34.246433225188035,
                "longitutde": 108.98229869582543
            },
            {
                "id": 263808688,
                "name": "仲英书院 东21舍",
                "type": "nan",
                "latitude": 34.246153224604605,
                "longitutde": 108.98200834481696
            },
            {
                "id": 264106085,
                "name": "梧桐苑",
                "type": "nan",
                "latitude": 34.2463805,
                "longitutde": 108.97658524999997
            },
            {
                "id": 264106086,
                "name": "西13舍",
                "type": "nan",
                "latitude": 34.24577725,
                "longitutde": 108.97658974999999
            },
            {
                "id": 264106088,
                "name": "西1舍",
                "type": "nan",
                "latitude": 34.24577510565951,
                "longitutde": 108.97779877929503
            },
            {
                "id": 264106090,
                "name": "西5舍",
                "type": "nan",
                "latitude": 34.24459238385021,
                "longitutde": 108.97780924959041
            },
            {
                "id": 264106092,
                "name": "西6舍",
                "type": "nan",
                "latitude": 34.24428880183498,
                "longitutde": 108.97780127543679
            },
            {
                "id": 264106093,
                "name": "西4舍",
                "type": "nan",
                "latitude": 34.2449278,
                "longitutde": 108.97780555000001
            },
            {
                "id": 264106094,
                "name": "西3舍",
                "type": "nan",
                "latitude": 34.24525045,
                "longitutde": 108.97779549999998
            },
            {
                "id": 264106095,
                "name": "西2舍",
                "type": "nan",
                "latitude": 34.24550328665853,
                "longitutde": 108.97778961928366
            },
            {
                "id": 264106096,
                "name": "西14舍",
                "type": "nan",
                "latitude": 34.24540980000001,
                "longitutde": 108.976748
            },
            {
                "id": 264106097,
                "name": "西15舍",
                "type": "nan",
                "latitude": 34.24504182687861,
                "longitutde": 108.97675930722974
            },
            {
                "id": 264106098,
                "name": "青年教师公寓1#",
                "type": "nan",
                "latitude": 34.245807549999995,
                "longitutde": 108.98028599999999
            },
            {
                "id": 264106099,
                "name": "青年教师公寓2#",
                "type": "nan",
                "latitude": 34.2455126227797,
                "longitutde": 108.98025525736182
            },
            {
                "id": 264106100,
                "name": "交大公安处",
                "type": "nan",
                "latitude": 34.24575708377429,
                "longitutde": 108.98192893231267
            },
            {
                "id": 264106101,
                "name": "温泉浴室",
                "type": "nan",
                "latitude": 34.24555930297246,
                "longitutde": 108.98255643578106
            },
            {
                "id": 264106102,
                "name": "西安交通大学医院",
                "type": "nan",
                "latitude": 34.24606378704048,
                "longitutde": 108.98275826955349
            },
            {
                "id": 264106103,
                "name": "南二楼",
                "type": "nan",
                "latitude": 34.24595587590421,
                "longitutde": 108.98301293877077
            },
            {
                "id": 264107442,
                "name": "教工楼1#",
                "type": "nan",
                "latitude": 34.24537486304366,
                "longitutde": 108.98286069905632
            },
            {
                "id": 264107444,
                "name": "东14舍",
                "type": "nan",
                "latitude": 34.24421125224103,
                "longitutde": 108.98246815175447
            },
            {
                "id": 264107446,
                "name": "东13舍",
                "type": "nan",
                "latitude": 34.24443585,
                "longitutde": 108.98195770000001
            },
            {
                "id": 264107448,
                "name": "东15舍",
                "type": "nan",
                "latitude": 34.24396470810326,
                "longitutde": 108.98193435582505
            },
            {
                "id": 264107450,
                "name": "东16舍",
                "type": "nan",
                "latitude": 34.24396109678139,
                "longitutde": 108.98274351776207
            },
            {
                "id": 264107451,
                "name": "东10舍",
                "type": "nan",
                "latitude": 34.24493738758199,
                "longitutde": 108.98193959785762
            },
            {
                "id": 264107453,
                "name": "东11舍",
                "type": "nan",
                "latitude": 34.244931978142276,
                "longitutde": 108.98272923659442
            },
            {
                "id": 264107455,
                "name": "东12舍",
                "type": "nan",
                "latitude": 34.24469867288603,
                "longitutde": 108.98247537706767
            },
            {
                "id": 264108023,
                "name": "体育部",
                "type": "nan",
                "latitude": 34.24793164040839,
                "longitutde": 108.98236962249845
            },
            {
                "id": 264108763,
                "name": "大学生文体教育中心",
                "type": "nan",
                "latitude": 34.24751488668268,
                "longitutde": 108.97548980594229
            },
            {
                "id": 264109797,
                "name": "西12舍",
                "type": "nan",
                "latitude": 34.24675473802341,
                "longitutde": 108.97608125395803
            },
            {
                "id": 264109799,
                "name": "西11舍",
                "type": "nan",
                "latitude": 34.24676025417909,
                "longitutde": 108.97683231147012
            },
            {
                "id": 264109801,
                "name": "西7 8 9 10舍",
                "type": "nan",
                "latitude": 34.24322510627975,
                "longitutde": 108.97783951530461
            },
            {
                "id": 264109803,
                "name": "青年教师公寓3#",
                "type": "nan",
                "latitude": 34.24318349471981,
                "longitutde": 108.9801458522368
            },
            {
                "id": 264271419,
                "name": "材料学院 强度楼",
                "type": "nan",
                "latitude": 34.25027244914585,
                "longitutde": 108.9766820022252
            },
            {
                "id": 264287693,
                "name": "交大出版大厦",
                "type": "nan",
                "latitude": 34.2466357,
                "longitutde": 108.98281529999998
            },
            {
                "id": 264288687,
                "name": "北二楼",
                "type": "nan",
                "latitude": 34.24794072422435,
                "longitutde": 108.98274338301054
            },
            {
                "id": 264288688,
                "name": "启光大厦",
                "type": "nan",
                "latitude": 34.247154377931416,
                "longitutde": 108.98287608963726
            },
            {
                "id": 264288689,
                "name": "北三楼",
                "type": "nan",
                "latitude": 34.248453051531044,
                "longitutde": 108.9829684024073
            },
            {
                "id": 264288690,
                "name": "旭邦大厦",
                "type": "nan",
                "latitude": 34.248866494850894,
                "longitutde": 108.98292800950188
            },
            {
                "id": 264288691,
                "name": "能源馆",
                "type": "nan",
                "latitude": 34.24947425364967,
                "longitutde": 108.98267689335067
            },
            {
                "id": 264288692,
                "name": "交大电脑城",
                "type": "nan",
                "latitude": 34.250522938072734,
                "longitutde": 108.98307285530804
            },
            {
                "id": 264288693,
                "name": "多相流国家重点实验室",
                "type": "nan",
                "latitude": 34.249539969143164,
                "longitutde": 108.98099033673851
            },
            {
                "id": 264288694,
                "name": "西迁纪念馆",
                "type": "nan",
                "latitude": 34.24901887847813,
                "longitutde": 108.9809628731237
            },
            {
                "id": 264288695,
                "name": "气动实验室",
                "type": "nan",
                "latitude": 34.249019914300156,
                "longitutde": 108.9817843378948
            },
            {
                "id": 264288696,
                "name": "电力中心 校卫队",
                "type": "nan",
                "latitude": 34.249055538439904,
                "longitutde": 108.98136285115935
            },
            {
                "id": 264414271,
                "name": "电气绝缘楼",
                "type": "nan",
                "latitude": 34.2521119384207,
                "longitutde": 108.97516293391402
            },
            {
                "id": 264420412,
                "name": "工程坊",
                "type": "nan",
                "latitude": 34.24974514081309,
                "longitutde": 108.97654670185474
            },
            {
                "id": 264420414,
                "name": "低温实验室",
                "type": "nan",
                "latitude": 34.24772403342332,
                "longitutde": 108.9777074876421
            },
            {
                "id": 264420951,
                "name": "焊接楼",
                "type": "nan",
                "latitude": 34.24807037674112,
                "longitutde": 108.97548952151514
            },
            {
                "id": 264420952,
                "name": "化学楼",
                "type": "nan",
                "latitude": 34.24842892500104,
                "longitutde": 108.97560281385095
            },
            {
                "id": 264420957,
                "name": "锅炉房",
                "type": "nan",
                "latitude": 34.25024715935611,
                "longitutde": 108.97526839138868
            },
            {
                "id": 264420960,
                "name": "东区水房 锅炉房",
                "type": "nan",
                "latitude": 34.244958034111754,
                "longitutde": 108.98120580210602
            },
            {
                "id": 264420962,
                "name": "西区水房",
                "type": "nan",
                "latitude": 34.246242325600114,
                "longitutde": 108.97733234407266
            },
            {
                "id": 264420963,
                "name": "饮食中心面屋",
                "type": "nan",
                "latitude": 34.24649995000001,
                "longitutde": 108.9773206
            },
            {
                "id": 264421116,
                "name": "教二100",
                "type": "nan",
                "latitude": 34.24876554234272,
                "longitutde": 108.97803442495827
            },
            {
                "id": 264421117,
                "name": "中三1300",
                "type": "nan",
                "latitude": 34.25149896462091,
                "longitutde": 108.97768615810503
            },
            {
                "id": 264421118,
                "name": "中二1200",
                "type": "nan",
                "latitude": 34.25151109458301,
                "longitutde": 108.98016922477028
            },
            {
                "id": 264738600,
                "name": "软件学院北小楼",
                "type": "nan",
                "latitude": 34.25228253175306,
                "longitutde": 108.97802737765724
            },
            {
                "id": 264738602,
                "name": "交大邮局",
                "type": "nan",
                "latitude": 34.252296725806836,
                "longitutde": 108.97945792899384
            },
            {
                "id": 264738603,
                "name": "西安交通大学招生办公室",
                "type": "nan",
                "latitude": 34.252314594321206,
                "longitutde": 108.97993702857626
            },
            {
                "id": 265355081,
                "name": "体育教室",
                "type": "nan",
                "latitude": 34.245986349999995,
                "longitutde": 108.97615235
            },
            {
                "id": 265355082,
                "name": "国防教育中心",
                "type": "nan",
                "latitude": 34.245758245264,
                "longitutde": 108.97615848906874
            },
            {
                "id": 266254172,
                "name": "团委",
                "type": "nan",
                "latitude": 34.24361274187277,
                "longitutde": 108.97631109724469
            },
            {
                "id": 787135570,
                "name": "高电压教研室（北楼）",
                "type": "nan",
                "latitude": 34.249120426226234,
                "longitutde": 108.98258575718785
            },
            {
                "id": 787135571,
                "name": "仲英楼",
                "type": "nan",
                "latitude": 34.24930867935092,
                "longitutde": 108.9753297360029
            },
            {
                "id": 787135572,
                "name": "研究生宿舍",
                "type": "nan",
                "latitude": 34.246509662285604,
                "longitutde": 108.97526715974028
            },
            {
                "id": 1064850858,
                "name": "软件学院西小楼",
                "type": "nan",
                "latitude": 34.25169151360948,
                "longitutde": 108.97705172434233
            },
            {
                "id": 1167525875,
                "name": "西迁博物馆",
                "type": "nan",
                "latitude": 34.243752525808205,
                "longitutde": 108.97977896735499
            },
            {
                "id": 1219695761,
                "name": "数学教学实验中心",
                "type": "nan",
                "latitude": 34.251254422109554,
                "longitutde": 108.97916851815211
            },
            {
                "id": 1232830393,
                "name": "高电压教研室（南楼）",
                "type": "nan",
                "latitude": 34.24888442233744,
                "longitutde": 108.98243133475938
            }
        ]
    }
}